{"type":"FeatureCollection","features":[{"type":"Feature","geometry":{"type":"Point","coordinates":[-20.340045,-40.2833313]},"properties":{"name":"Mezanino Café","status":"Mezanino Café","region":"3205200"},"id":2},{"type":"Feature","geometry":{"type":"Point","coordinates":[-20.2826719,-40.303242]},"properties":{"name":"Prosa Café","status":"Prosa Café","region":"3205309"},"id":6},{"type":"Feature","geometry":{"type":"Point","coordinates":[-19.9084,-40.1641052]},"properties":{"name":"Restaurante Bom Sabor ","status":"Restaurante Bom Sabor ","region":"3200607"},"id":7},{"type":"Feature","geometry":{"type":"Point","coordinates":[-18.7246831,-39.8616557]},"properties":{"name":"Porto Beer","status":"Porto Beer","region":"3204906"},"id":8},{"type":"Feature","geometry":{"type":"Point","coordinates":[-18.7246831,-39.8616557]},"properties":{"name":"KEKE Restaurante","status":"KEKE Restaurante","region":"3204906"},"id":9},{"type":"Feature","geometry":{"type":"Point","coordinates":[-20.3400342,-40.2833281]},"properties":{"name":"The Cake","status":"The Cake","region":"3205200"},"id":3},{"type":"Feature","geometry":{"type":"Point","coordinates":[-40.3011215,-20.2799348]},"properties":{"name":"Kaffa Cafeteria","status":"Kaffa Cafeteria","region":"3205309"},"id":5},{"type":"Feature","geometry":{"type":"Point","coordinates":[-39.8628512,-18.7193324]},"properties":{"name":"Vamp","status":"Vamp","region":"3204906"},"id":10}]}